InitSem Success
InitShm success
 Checking No. 0 Pose.
 Checking No. 1 Pose.
 Checking No. 2 Pose.
 Checking No. 3 Pose.
 Checking No. 4 Pose.
 Checking No. 5 Pose.
 Checking No. 6 Pose.
 Checking No. 7 Pose.
 Checking No. 8 Pose.
 Checking No. 9 Pose.
 Checking No. 10 Pose.
 Checking No. 11 Pose.
 Checking No. 12 Pose.
 Checking No. 13 Pose.
 Checking No. 14 Pose.
 Checking No. 15 Pose.
 Checking No. 16 Pose.
 Checking No. 17 Pose.
 Checking No. 18 Pose.
 Checking No. 19 Pose.
 Checking No. 20 Pose.
 Checking No. 21 Pose.
 Checking No. 22 Pose.
 Checking No. 23 Pose.
 Checking No. 24 Pose.
 Checking No. 25 Pose.
 Checking No. 26 Pose.
 Checking No. 27 Pose.
 Checking No. 28 Pose.
 Checking No. 29 Pose.
 Checking No. 30 Pose.
 Checking No. 31 Pose.
 Checking No. 32 Pose.
 Checking No. 33 Pose.
 Checking No. 34 Pose.
 Checking No. 35 Pose.
 Checking No. 35 Pose.
ODOM  DeltaTime=-10
ODOM  DeltaTime=10
IMU DeltaTime=-10
ODOM  DeltaTime=10
ODOM  DeltaTime=10
ODOM  DeltaTime=10
IMU DeltaTime=35
ODOM  DeltaTime=10
IMU DeltaTime=6
IMU DeltaTime=5
ODOM  DeltaTime=10
IMU DeltaTime=10
ODOM  DeltaTime=10
IMU DeltaTime=5
ODOM  DeltaTime=10
ODOM  DeltaTime=10
ODOM  DeltaTime=10
IMU DeltaTime=31
IMU DeltaTime=5
9899
ODOM  DeltaTime=10
IMU DeltaTime=5
ODOM  DeltaTime=10
IMU DeltaTime=11
ODOM  DeltaTime=10
IMU DeltaTime=10
IMU DeltaTime=5
ODOM  DeltaTime=10
ODOM  DeltaTime=10
ODOM  DeltaTime=10
ODOM  DeltaTime=10
9866
ODOM  DeltaTime=10
ODOM  DeltaTime=10
IMU DeltaTime=56
IMU DeltaTime=5
ODOM  DeltaTime=10
IMU DeltaTime=5
ODOM  DeltaTime=10
IMU DeltaTime=5
IMU DeltaTime=6
9829
ODOM  DeltaTime=10
IMU DeltaTime=5
ODOM  DeltaTime=10
IMU DeltaTime=15
ODOM  DeltaTime=10
IMU DeltaTime=5
ODOM  DeltaTime=10
IMU DeltaTime=17
ODOM  DeltaTime=10
IMU DeltaTime=5
9876
ODOM  DeltaTime=10
ODOM  DeltaTime=10
ODOM  DeltaTime=10
IMU DeltaTime=30
IMU DeltaTime=6
ODOM  DeltaTime=10
IMU DeltaTime=5
IMU DeltaTime=5
ODOM  DeltaTime=10
9823
ODOM  DeltaTime=10
ODOM  DeltaTime=10
ODOM  DeltaTime=10
ODOM  DeltaTime=10
ODOM  DeltaTime=10
9827
IMU DeltaTime=61
ODOM  DeltaTime=10
IMU DeltaTime=5
IMU DeltaTime=5
ODOM  DeltaTime=10
IMU DeltaTime=5
ODOM  DeltaTime=10
IMU DeltaTime=5
IMU DeltaTime=6
ODOM  DeltaTime=10
IMU DeltaTime=5
ODOM  DeltaTime=10
IMU DeltaTime=15
9827
ODOM  DeltaTime=10
IMU DeltaTime=5
IMU DeltaTime=5
ODOM  DeltaTime=10
IMU DeltaTime=5
ODOM  DeltaTime=10
ODOM  DeltaTime=10
ODOM  DeltaTime=10
IMU DeltaTime=31
IMU DeltaTime=5
ODOM  DeltaTime=10
9846
IMU DeltaTime=5
IMU DeltaTime=5
ODOM  DeltaTime=10
IMU DeltaTime=11
ODOM  DeltaTime=10
IMU DeltaTime=5
ODOM  DeltaTime=10
IMU DeltaTime=15
ODOM  DeltaTime=10
IMU DeltaTime=5
ODOM  DeltaTime=10
9870
ODOM  DeltaTime=10
ODOM  DeltaTime=10
ODOM  DeltaTime=10
ODOM  DeltaTime=10
9850
ODOM  DeltaTime=10
ODOM  DeltaTime=10
ODOM  DeltaTime=10
ODOM  DeltaTime=10
ODOM  DeltaTime=10
IMU DeltaTime=102
IMU DeltaTime=5
9833
ODOM  DeltaTime=10
IMU DeltaTime=5
IMU DeltaTime=5
ODOM  DeltaTime=10
IMU DeltaTime=5
ODOM  DeltaTime=10
IMU DeltaTime=5
IMU DeltaTime=6
ODOM  DeltaTime=10
IMU DeltaTime=5
IMU DeltaTime=5
ODOM  DeltaTime=10
ODOM  DeltaTime=10
9855
ODOM  DeltaTime=10
IMU DeltaTime=30
ODOM  DeltaTime=10
IMU DeltaTime=5
IMU DeltaTime=6
ODOM  DeltaTime=10
IMU DeltaTime=5
IMU DeltaTime=5
ODOM  DeltaTime=10
IMU DeltaTime=5
IMU DeltaTime=5
9844
ODOM  DeltaTime=10
IMU DeltaTime=5
ODOM  DeltaTime=10
ODOM  DeltaTime=10
ODOM  DeltaTime=10
ODOM  DeltaTime=10
ODOM  DeltaTime=10
9839
ODOM  DeltaTime=10
ODOM  DeltaTime=10
ODOM  DeltaTime=10
ODOM  DeltaTime=10
9851
ODOM  DeltaTime=10
ODOM  DeltaTime=10
IMU DeltaTime=112
IMU DeltaTime=5
ODOM  DeltaTime=10
IMU DeltaTime=5
IMU DeltaTime=6
ODOM  DeltaTime=10
IMU DeltaTime=5
IMU DeltaTime=5
ODOM  DeltaTime=10
IMU DeltaTime=5
9835
IMU DeltaTime=5
ODOM  DeltaTime=10
IMU DeltaTime=5
ODOM  DeltaTime=10
IMU DeltaTime=5
IMU DeltaTime=5
ODOM  DeltaTime=10
IMU DeltaTime=6
IMU DeltaTime=5
ODOM  DeltaTime=10
IMU DeltaTime=10
ODOM  DeltaTime=10
IMU DeltaTime=5
9817
ODOM  DeltaTime=10
IMU DeltaTime=15
ODOM  DeltaTime=10
IMU DeltaTime=5
IMU DeltaTime=6
ODOM  DeltaTime=10
IMU DeltaTime=5
IMU DeltaTime=5
ODOM  DeltaTime=10
IMU DeltaTime=5
IMU DeltaTime=5
ODOM  DeltaTime=10
IMU DeltaTime=5
ODOM  DeltaTime=10
9834
ODOM  DeltaTime=10
ODOM  DeltaTime=10
ODOM  DeltaTime=10
IMU DeltaTime=41
IMU DeltaTime=5
ODOM  DeltaTime=10
IMU DeltaTime=5
IMU DeltaTime=5
ODOM  DeltaTime=10
9845
IMU DeltaTime=6
IMU DeltaTime=5
ODOM  DeltaTime=10
ODOM  DeltaTime=10
IMU DeltaTime=15
ODOM  DeltaTime=10
ODOM  DeltaTime=10
IMU DeltaTime=20
IMU DeltaTime=5
ODOM  DeltaTime=10
9860
IMU DeltaTime=6
IMU DeltaTime=5
ODOM  DeltaTime=10
ODOM  DeltaTime=10
IMU DeltaTime=20
ODOM  DeltaTime=10
IMU DeltaTime=5
ODOM  DeltaTime=10
IMU DeltaTime=5
ODOM  DeltaTime=10
9885
ODOM  DeltaTime=10
IMU DeltaTime=21
IMU DeltaTime=5
ODOM  DeltaTime=10
IMU DeltaTime=5
ODOM  DeltaTime=10
ODOM  DeltaTime=10
ODOM  DeltaTime=10
9861
ODOM  DeltaTime=10
ODOM  DeltaTime=10
ODOM  DeltaTime=10
IMU DeltaTime=61
IMU DeltaTime=5
ODOM  DeltaTime=10
IMU DeltaTime=5
IMU DeltaTime=5
ODOM  DeltaTime=10
9838
IMU DeltaTime=6
IMU DeltaTime=5
ODOM  DeltaTime=10
IMU DeltaTime=5
ODOM  DeltaTime=10
IMU DeltaTime=15
ODOM  DeltaTime=10
IMU DeltaTime=5
IMU DeltaTime=5
ODOM  DeltaTime=10
IMU DeltaTime=5
IMU DeltaTime=6
ODOM  DeltaTime=10
9863
IMU DeltaTime=5
IMU DeltaTime=5
ODOM  DeltaTime=10
IMU DeltaTime=10
ODOM  DeltaTime=10
ODOM  DeltaTime=10
ODOM  DeltaTime=10
ODOM  DeltaTime=10
9850
IMU DeltaTime=41
ODOM  DeltaTime=10
IMU DeltaTime=5
IMU DeltaTime=5
ODOM  DeltaTime=10
IMU DeltaTime=5
IMU DeltaTime=5
ODOM  DeltaTime=10
ODOM  DeltaTime=10
IMU DeltaTime=10
ODOM  DeltaTime=10
9857
ODOM  DeltaTime=10
ODOM  DeltaTime=10
ODOM  DeltaTime=10
ODOM  DeltaTime=10
ODOM  DeltaTime=10
9848
ODOM  DeltaTime=10
ODOM  DeltaTime=10
ODOM  DeltaTime=10
IMU DeltaTime=92
IMU DeltaTime=5
ODOM  DeltaTime=10
IMU DeltaTime=5
IMU DeltaTime=5
ODOM  DeltaTime=10
9854
IMU DeltaTime=5
IMU DeltaTime=6
ODOM  DeltaTime=10
IMU DeltaTime=5
IMU DeltaTime=5
ODOM  DeltaTime=10
IMU DeltaTime=5
IMU DeltaTime=5
ODOM  DeltaTime=10
IMU DeltaTime=5
IMU DeltaTime=5
ODOM  DeltaTime=10
IMU DeltaTime=5
ODOM  DeltaTime=10
9849
IMU DeltaTime=11
ODOM  DeltaTime=10
IMU DeltaTime=15
ODOM  DeltaTime=10
IMU DeltaTime=10
ODOM  DeltaTime=10
IMU DeltaTime=5
IMU DeltaTime=5
ODOM  DeltaTime=10
IMU DeltaTime=5
ODOM  DeltaTime=10
9856
ODOM  DeltaTime=10
ODOM  DeltaTime=10
ODOM  DeltaTime=10
ODOM  DeltaTime=10
ODOM  DeltaTime=10
9847
ODOM  DeltaTime=10
ODOM  DeltaTime=10
ODOM  DeltaTime=10
IMU DeltaTime=92
ODOM  DeltaTime=10
IMU DeltaTime=5
IMU DeltaTime=5
ODOM  DeltaTime=10
IMU DeltaTime=5
9815
IMU DeltaTime=5
ODOM  DeltaTime=10
IMU DeltaTime=6
IMU DeltaTime=5
ODOM  DeltaTime=10
IMU DeltaTime=5
IMU DeltaTime=5
ODOM  DeltaTime=10
IMU DeltaTime=10
ODOM  DeltaTime=10
IMU DeltaTime=10
ODOM  DeltaTime=10
9847
IMU DeltaTime=5
IMU DeltaTime=6
ODOM  DeltaTime=10
IMU DeltaTime=5
ODOM  DeltaTime=10
IMU DeltaTime=15
ODOM  DeltaTime=10
IMU DeltaTime=5
IMU DeltaTime=5
ODOM  DeltaTime=10
IMU DeltaTime=10
ODOM  DeltaTime=10
9844
ODOM  DeltaTime=10
ODOM  DeltaTime=10
ODOM  DeltaTime=10
ODOM  DeltaTime=10
IMU DeltaTime=51
ODOM  DeltaTime=10
9867
IMU DeltaTime=5
IMU DeltaTime=6
ODOM  DeltaTime=10
IMU DeltaTime=5
IMU DeltaTime=5
ODOM  DeltaTime=10
IMU DeltaTime=5
IMU DeltaTime=5
ODOM  DeltaTime=10
IMU DeltaTime=5
ODOM  DeltaTime=10
ODOM  DeltaTime=10
9832
ODOM  DeltaTime=10
ODOM  DeltaTime=10
ODOM  DeltaTime=10
ODOM  DeltaTime=10
IMU DeltaTime=56
IMU DeltaTime=5
ODOM  DeltaTime=10
IMU DeltaTime=5
9868
IMU DeltaTime=6
ODOM  DeltaTime=10
IMU DeltaTime=5
IMU DeltaTime=5
ODOM  DeltaTime=10
IMU DeltaTime=5
IMU DeltaTime=5
ODOM  DeltaTime=10
IMU DeltaTime=5
ODOM  DeltaTime=10
ODOM  DeltaTime=10
IMU DeltaTime=21
9854
IMU DeltaTime=5
ODOM  DeltaTime=10
IMU DeltaTime=5
ODOM  DeltaTime=10
ODOM  DeltaTime=10
IMU DeltaTime=25
ODOM  DeltaTime=10
IMU DeltaTime=5
IMU DeltaTime=6
ODOM  DeltaTime=10
9847
IMU DeltaTime=5
ODOM  DeltaTime=10
ODOM  DeltaTime=10
ODOM  DeltaTime=10
IMU DeltaTime=35
ODOM  DeltaTime=10
IMU DeltaTime=5
IMU DeltaTime=6
ODOM  DeltaTime=10
9837
IMU DeltaTime=5
IMU DeltaTime=5
ODOM  DeltaTime=10
ODOM  DeltaTime=10
ODOM  DeltaTime=10
ODOM  DeltaTime=10
ODOM  DeltaTime=10
9853
ODOM  DeltaTime=10
ODOM  DeltaTime=10
ODOM  DeltaTime=10
ODOM  DeltaTime=10
IMU DeltaTime=86
ODOM  DeltaTime=10
IMU DeltaTime=5
9835
IMU DeltaTime=5
ODOM  DeltaTime=10
IMU DeltaTime=6
IMU DeltaTime=5
ODOM  DeltaTime=10
IMU DeltaTime=5
IMU DeltaTime=5
ODOM  DeltaTime=10
IMU DeltaTime=5
IMU DeltaTime=5
ODOM  DeltaTime=10
IMU DeltaTime=5
ODOM  DeltaTime=10
IMU DeltaTime=11
9810
IMU DeltaTime=5
ODOM  DeltaTime=10
ODOM  DeltaTime=10
ODOM  DeltaTime=10
ODOM  DeltaTime=10
ODOM  DeltaTime=10
9848
IMU DeltaTime=51
ODOM  DeltaTime=10
IMU DeltaTime=5
IMU DeltaTime=5
ODOM  DeltaTime=10
IMU DeltaTime=5
IMU DeltaTime=5
ODOM  DeltaTime=10
IMU DeltaTime=5
IMU DeltaTime=5
ODOM  DeltaTime=10
IMU DeltaTime=5
IMU DeltaTime=6
ODOM  DeltaTime=10
9837
IMU DeltaTime=5
IMU DeltaTime=5
ODOM  DeltaTime=10
IMU DeltaTime=5
IMU DeltaTime=5
ODOM  DeltaTime=10
IMU DeltaTime=5
ODOM  DeltaTime=10
IMU DeltaTime=11
ODOM  DeltaTime=10
IMU DeltaTime=5
ODOM  DeltaTime=10
9862
ODOM  DeltaTime=10
ODOM  DeltaTime=10
ODOM  DeltaTime=10
IMU DeltaTime=46
ODOM  DeltaTime=10
IMU DeltaTime=5
IMU DeltaTime=5
ODOM  DeltaTime=10
IMU DeltaTime=5
9830
IMU DeltaTime=5
ODOM  DeltaTime=10
ODOM  DeltaTime=10
ODOM  DeltaTime=10
IMU DeltaTime=31
ODOM  DeltaTime=10
IMU DeltaTime=5
IMU DeltaTime=5
ODOM  DeltaTime=10
9831
IMU DeltaTime=5
IMU DeltaTime=5
ODOM  DeltaTime=10
IMU DeltaTime=6
ODOM  DeltaTime=10
IMU DeltaTime=15
ODOM  DeltaTime=10
IMU DeltaTime=10
ODOM  DeltaTime=10
ODOM  DeltaTime=10
9853
IMU DeltaTime=15
ODOM  DeltaTime=10
IMU DeltaTime=16
ODOM  DeltaTime=10
IMU DeltaTime=5
IMU DeltaTime=5
ODOM  DeltaTime=10
ODOM  DeltaTime=10
ODOM  DeltaTime=10
9860
ODOM  DeltaTime=10
ODOM  DeltaTime=10
ODOM  DeltaTime=10
IMU DeltaTime=56
ODOM  DeltaTime=10
IMU DeltaTime=14
ODOM  DeltaTime=10
9860
IMU DeltaTime=5
ODOM  DeltaTime=10
IMU DeltaTime=5
IMU DeltaTime=5
ODOM  DeltaTime=10
IMU DeltaTime=6
IMU DeltaTime=5
ODOM  DeltaTime=10
IMU DeltaTime=5
IMU DeltaTime=5
ODOM  DeltaTime=10
IMU DeltaTime=5
IMU DeltaTime=5
ODOM  DeltaTime=10
IMU DeltaTime=6
9858
ODOM  DeltaTime=10
ODOM  DeltaTime=10
ODOM  DeltaTime=10
ODOM  DeltaTime=10
IMU DeltaTime=45
ODOM  DeltaTime=10
IMU DeltaTime=5
9845
IMU DeltaTime=5
ODOM  DeltaTime=10
IMU DeltaTime=6
ODOM  DeltaTime=10
ODOM  DeltaTime=10
IMU DeltaTime=25
ODOM  DeltaTime=10
IMU DeltaTime=5
IMU DeltaTime=5
ODOM  DeltaTime=10
IMU DeltaTime=6
9867
ODOM  DeltaTime=10
IMU DeltaTime=15
ODOM  DeltaTime=10
IMU DeltaTime=5
ODOM  DeltaTime=10
ODOM  DeltaTime=10
ODOM  DeltaTime=10
IMU DeltaTime=31
9864
IMU DeltaTime=5
ODOM  DeltaTime=10
IMU DeltaTime=5
ODOM  DeltaTime=10
ODOM  DeltaTime=10
ODOM  DeltaTime=10
ODOM  DeltaTime=10
9872
ODOM  DeltaTime=10
ODOM  DeltaTime=10
ODOM  DeltaTime=10
ODOM  DeltaTime=10
ODOM  DeltaTime=10
9849
ODOM  DeltaTime=10
ODOM  DeltaTime=10
ODOM  DeltaTime=10
IMU DeltaTime=123
ODOM  DeltaTime=10
IMU DeltaTime=5
IMU DeltaTime=5
ODOM  DeltaTime=10
IMU DeltaTime=5
9856
IMU DeltaTime=5
ODOM  DeltaTime=10
IMU DeltaTime=5
IMU DeltaTime=5
ODOM  DeltaTime=10
IMU DeltaTime=5
InitSem Success
InitMsg Success
InitShm success
IMU DeltaTime=6
ODOM  DeltaTime=10
IMU DeltaTime=5
IMU DeltaTime=5
ODOM  DeltaTime=10
IMU DeltaTime=5
0
[odom_v odom_w imu_w]: 0, 0, 0.000371816
5
XXXXXXXXXXXXXXXXXXXXXXXXXXXXXXXXX
x: 0, y: 0, yaw: 0
prior: 
1 0 0 0
0 1 0 0
0 0 1 0
0 0 0 1
keyframe: 
1 0 0 0
0 1 0 0
0 0 1 0
0 0 0 1
relate: 
1 0 0 0
0 1 0 0
0 0 1 0
0 0 0 1
IMU DeltaTime=5
ODOM  DeltaTime=10
IMU DeltaTime=5
IMU DeltaTime=5
ODOM  DeltaTime=10
IMU DeltaTime=6
IMU DeltaTime=5
ODOM  DeltaTime=10
IMU DeltaTime=5
IMU DeltaTime=5
ODOM  DeltaTime=10
size after filter:983
IMU DeltaTime=5
ODOM  DeltaTime=10
IMU DeltaTime=10
ODOM  DeltaTime=10
IMU DeltaTime=6
ODOM  DeltaTime=10
ODOM  DeltaTime=10
ODOM  DeltaTime=10
IMU DeltaTime=30
IMU DeltaTime=5
ODOM  DeltaTime=10
IMU DeltaTime=6
IMU DeltaTime=5
ODOM  DeltaTime=10
IMU DeltaTime=5
ODOM  DeltaTime=10
IMU DeltaTime=10
ODOM  DeltaTime=10
pair: 
    0.998845    0.0480558 -5.75388e-05    -0.246607
  -0.0480511     0.998773    0.0121147     0.105591
 0.000639604   -0.0120979     0.999927   -0.0153062
           0            0            0            1
pair inverse: 
    0.998845   -0.0480515  0.000639646     0.251405
   0.0480553      0.99877   -0.0120979   -0.0937952
-5.75022e-05    0.0121146     0.999926    0.0140117
          -0            0           -0            1
ture: 
    0.998845    0.0480558 -5.75388e-05    -0.246607
  -0.0480511     0.998773    0.0121147     0.105591
 0.000639604   -0.0120979     0.999927   -0.0153062
           0            0            0            1
YYYYYYYYYYYYYYYYYYYYYYYYYYYYYYYYY
robotPosShareMemory.robotPosTimeStamp=1604125476711
robotPosShareMemory.robotPosition.x=-0.246607
robotPosShareMemory.robotPosition.y=0.105591
robotPosShareMemory.robotPosition.yaw=-0.0480699
robotPosShareMemory.robotPosition.v=0
robotPosShareMemory.robotPosition.w=0.000148726
ODOM  DeltaTime=10
9874
ODOM  DeltaTime=10
0.0149
[odom_v odom_w imu_w]: 0, 0, 0.000679585
5
XXXXXXXXXXXXXXXXXXXXXXXXXXXXXXXXX
x: -0.246607, y: 0.105591, yaw: -0.0480609
prior: 
    0.998845    0.0480466 -5.76276e-05    -0.246607
  -0.0480423     0.998772    0.0121147     0.105591
 0.000639624   -0.0120979     0.999927   -0.0153062
           0            0            0            1
keyframe: 
1 0 0 0
0 1 0 0
0 0 1 0
0 0 0 1
relate: 
    0.998845    0.0480466 -5.76276e-05    -0.246607
  -0.0480423     0.998772    0.0121147     0.105591
 0.000639624   -0.0120979     0.999927   -0.0153062
           0            0            0            1
ODOM  DeltaTime=10
ODOM  DeltaTime=10
ODOM  DeltaTime=10
ODOM  DeltaTime=10
size after filter:999
IMU DeltaTime=71
IMU DeltaTime=6
ODOM  DeltaTime=10
pair: 
           1  8.37897e-06  0.000812425   0.00756884
-9.86611e-06     0.999998   0.00181095  -0.00083812
-0.000812402  -0.00181096     0.999998    0.0048606
           0            0            0            1
pair inverse: 
           1 -9.85022e-06 -0.000812408   -0.0075649
 8.39487e-06     0.999998  -0.00181096  0.000846857
 0.000812419   0.00181095     0.999998  -0.00486522
          -0            0           -0            1
ture: 
    0.998845    0.0480451  0.000754839    -0.239049
   -0.048051     0.998748    0.0139255     0.104727
-8.48381e-05   -0.0139456     0.999903   -0.0104365
           0            0            0            1
YYYYYYYYYYYYYYYYYYYYYYYYYYYYYYYYY
robotPosShareMemory.robotPosTimeStamp=1604125476773
robotPosShareMemory.robotPosition.x=-0.239049
robotPosShareMemory.robotPosition.y=0.104727
robotPosShareMemory.robotPosition.yaw=-0.0480695
robotPosShareMemory.robotPosition.v=0
robotPosShareMemory.robotPosition.w=0.000289512
IMU DeltaTime=5
IMU DeltaTime=5
ODOM  DeltaTime=10
0.006
[odom_v odom_w imu_w]: 0, 0, 6.76773e-05
5
XXXXXXXXXXXXXXXXXXXXXXXXXXXXXXXXX
x: -0.239049, y: 0.104727, yaw: -0.0480634
prior: 
    0.998845     0.048039  0.000754751    -0.239049
  -0.0480449     0.998748    0.0139255     0.104727
-8.48411e-05   -0.0139456     0.999903   -0.0104365
           0            0            0            1
keyframe: 
1 0 0 0
0 1 0 0
0 0 1 0
0 0 0 1
relate: 
    0.998845     0.048039  0.000754751    -0.239049
  -0.0480449     0.998748    0.0139255     0.104727
-8.48411e-05   -0.0139456     0.999903   -0.0104365
           0            0            0            1
IMU DeltaTime=5
IMU DeltaTime=5
ODOM  DeltaTime=10
IMU DeltaTime=5
IMU DeltaTime=5
ODOM  DeltaTime=10
IMU DeltaTime=5
IMU DeltaTime=6
ODOM  DeltaTime=10
IMU DeltaTime=5
size after filter:999
ODOM  DeltaTime=10
pair: 
           1 -0.000124491   0.00033823   0.00411724
 0.000124384            1  0.000414113 -0.000900888
-0.000338271 -0.000414072            1   0.00312996
           0            0            0            1
pair inverse: 
           1  0.000124351 -0.000338282  -0.00411607
-0.000124524            1 -0.000414071  0.000902696
 0.000338219  0.000414114            1  -0.00313098
          -0           -0           -0            1
ture: 
    0.998851      0.04791   0.00109122    -0.234949
  -0.0479207     0.998748    0.0143396     0.103792
-0.000402827   -0.0143754     0.999896  -0.00726902
           0            0            0            1
YYYYYYYYYYYYYYYYYYYYYYYYYYYYYYYYY
robotPosShareMemory.robotPosTimeStamp=1604125476830
robotPosShareMemory.robotPosition.x=-0.234949
robotPosShareMemory.robotPosition.y=0.103792
robotPosShareMemory.robotPosition.yaw=-0.047939
robotPosShareMemory.robotPosition.v=0
robotPosShareMemory.robotPosition.w=0.000102258
ODOM  DeltaTime=10
9818
IMU DeltaTime=20
0.0056
[odom_v odom_w imu_w]: 0, 0, -0.000209906
5
XXXXXXXXXXXXXXXXXXXXXXXXXXXXXXXXX
x: -0.234949, y: 0.103792, yaw: -0.0479372
prior: 
    0.998851    0.0479081   0.00109118    -0.234949
  -0.0479189     0.998748    0.0143396     0.103792
-0.000402833   -0.0143754     0.999897  -0.00726902
           0            0            0            1
keyframe: 
IMU DeltaTime=51 
0 0 0
0 1 0 0
0 0 1 0
ODOM  DeltaTime=10
0 0 0 1
relate: 
    0.998851    0.0479081   0.00109118    -0.234949
  -0.0479189     0.998748    0.0143396     0.103792
-0.000402833   -0.0143754     0.999897  -0.00726902
           0            0            0            1
ODOM  DeltaTime=10
ODOM  DeltaTime=10
ODOM  DeltaTime=10
size after filter:982
ODOM  DeltaTime=10
pair: 
    0.999999   0.00139166  0.000162373  -0.00303694
 -0.00139164     0.999999  -0.00017262  0.000359266
-0.000162601  0.000172388            1   0.00377388
           0            0            0            1
pair inverse: 
    0.999999  -0.00139163 -0.000162613   0.00303805
  0.00139167     0.999999  0.000172394  -0.00035569
 0.000162361 -0.000172614            1  -0.00377332
          -0            0           -0            1
ture: 
    0.998784    0.0492957   0.00127349    -0.237842
  -0.0493088     0.998683    0.0141655      0.10448
-0.000573508   -0.0142111     0.999899  -0.00343905
           0            0            0            1
YYYYYYYYYYYYYYYYYYYYYYYYYYYYYYYYY
robotPosShareMemory.robotPosTimeStamp=1604125476890
robotPosShareMemory.robotPosition.x=-0.237842
robotPosShareMemory.robotPosition.y=0.10448
robotPosShareMemory.robotPosition.yaw=-0.0493288
robotPosShareMemory.robotPosition.v=0
robotPosShareMemory.robotPosition.w=-4.94361e-05
IMU DeltaTime=50
ODOM  DeltaTime=10
9821
IMU DeltaTime=5
0.0061
[odom_v odom_w imu_w]: 0, 0, 7.14826e-05
5
IMU DeltaTime=5
XXXXXXXXXXXXXXXXXXXXXXXXXXXXXXXXX
x: -0.237842, y: 0.10448, yaw: -0.0493298
prior: 
ODOM  DeltaTime=10
    0.998783    0.0492967    0.0012735    -0.237842
  -0.0493098     0.998683    0.0141655      0.10448
-0.000573513   -0.0142111     0.999899  -0.00343905
           0            0            0            1
keyframe: 
1 0 0 0
0 1 0 0
0 0 1 0
0 0 0 1
relate: 
    0.998783    0.0492967    0.0012735    -0.237842
  -0.0493098     0.998683    0.0141655      0.10448
-0.000573513   -0.0142111     0.999899  -0.00343905
           0            0            0            1
IMU DeltaTime=5
ODOM  DeltaTime=10
IMU DeltaTime=5
IMU DeltaTime=5
ODOM  DeltaTime=10
ODOM  DeltaTime=10
size after filter:1001
ODOM  DeltaTime=10
IMU DeltaTime=31
ODOM  DeltaTime=10
IMU DeltaTime=5
pair: 
    0.999993  -0.00388042 -0.000124077    0.0208725
  0.00388149     0.999946   0.00966326   -0.0113498
 8.65451e-05  -0.00966367     0.999954   -0.0133071
           0            0            0            1
pair inverse: 
   0.999992  0.00388144 8.65725e-05  -0.0208271
-0.00388047    0.999945 -0.00966366   0.0113016
-0.00012405  0.00966325    0.999953   0.0134188
         -0           0          -0           1
ture: 
    0.998967    0.0454228   0.00109446    -0.217373
  -0.0454359     0.998683     0.023832    0.0921677
-1.05336e-05   -0.0238571     0.999716   -0.0177763
           0            0            0            1
YYYYYYYYYYYYYYYYYYYYYYYYYYYYYYYYY
robotPosShareMemory.robotPosTimeStamp=1604125476957
robotPosShareMemory.robotPosition.x=-0.217373
robotPosShareMemory.robotPosition.y=0.0921677
robotPosShareMemory.robotPosition.yaw=-0.0454516
robotPosShareMemory.robotPosition.v=0
robotPosShareMemory.robotPosition.w=1.29183e-05
IMU DeltaTime=5
ODOM  DeltaTime=10
IMU DeltaTime=5
9836
IMU DeltaTime=6
0.0067
[odom_v odom_w imu_w]: 0, 0, -6.22086e-05
5
XXXXXXXXXXXXXXXXXXXXXXXXXXXXXXXXX
x: -0.217373, y: 0.0921677, yaw: -0.0454513
prior: 
    0.998967    0.0454225   0.00109447    -0.217373
  -0.0454357     0.998683     0.023832    0.0921677
-1.05199e-05   -0.0238571     0.999715   -0.0177763
           0            0            0            1
keyframe: 
1 0 0 0
0 1 0 0
0 0 1 0
0 0 0 1
relate: 
    0.998967    0.0454225   0.00109447    -0.217373
  -0.0454357     0.998683     0.023832    0.0921677
-1.05199e-05   -0.0238571     0.999715   -0.0177763
           0            0            0            1
ODOM  DeltaTime=10
ODOM  DeltaTime=10
ODOM  DeltaTime=10
IMU DeltaTime=30
ODOM  DeltaTime=10
IMU DeltaTime=6
size after filter:980
IMU DeltaTime=5
ODOM  DeltaTime=10
IMU DeltaTime=5
IMU DeltaTime=5
ODOM  DeltaTime=10
IMU DeltaTime=5
pair: 
   0.999996  0.00254674 -0.00159292  -0.0312254
-0.00255741    0.999974 -0.00674649   0.0100823
 0.00157569  0.00675054    0.999977 -0.00778496
          0           0           0           1
pair inverse: 
   0.999995 -0.00255743   0.0015757   0.0312633
 0.00254672    0.999974  0.00675053 -0.00994993
-0.00159291 -0.00674649    0.999975  0.00780305
         -0           0          -0           1
ture: 
    0.998848    0.0480037 -0.000437309    -0.248334
  -0.0479892     0.998702     0.017084     0.102923
  0.00125683   -0.0170433     0.999855   -0.0252811
           0            0            0            1
YYYYYYYYYYYYYYYYYYYYYYYYYYYYYYYYY
robotPosShareMemory.robotPosTimeStamp=1604125477025
robotPosShareMemory.robotPosition.x=-0.248334
robotPosShareMemory.robotPosition.y=0.102923
robotPosShareMemory.robotPosition.yaw=-0.0480077
robotPosShareMemory.robotPosition.v=0
robotPosShareMemory.robotPosition.w=-1.93085e-05
9834
ODOM  DeltaTime=10
0.0068
[odom_v odom_w imu_w]: 0, 0, 0.000441302
5
XXXXXXXXXXXXXXXXXXXXXXXXXXXXXXXXX
x: -0.248334, y: 0.102923, yaw: -0.0480078
prior: 
    0.998847    0.0480037 -0.000437303    -0.248334
  -0.0479893     0.998702     0.017084     0.102923
  0.00125683   -0.0170433     0.999854   -0.0252811
           0            0            0            1
keyframe: 
1 0 0 0
0 1 0 0
0 0 1 0
0 0 0 1
relate: 
    0.998847    0.0480037 -0.000437303    -0.248334
  -0.0479893     0.998702     0.017084     0.102923
  0.00125683   -0.0170433     0.999854   -0.0252811
           0            0            0            1
ODOM  DeltaTime=10
ODOM  DeltaTime=10
ODOM  DeltaTime=10
IMU DeltaTime=41
IMU DeltaTime=5
ODOM  DeltaTime=10
size after filter:985
IMU DeltaTime=5
IMU DeltaTime=5
ODOM  DeltaTime=10
pair: 
    0.999999   0.00140481  0.000388448   0.00139198
 -0.00140508     0.999999   0.00104316   0.00469582
-0.000386999  -0.00104371     0.999999   0.00265618
           0            0            0            1
pair inverse: 
    0.999999  -0.00140522 -0.000386982  -0.00138436
  0.00140467     0.999998   -0.0010437    -0.004695
 0.000388465   0.00104316     0.999999  -0.00266162
          -0            0           -0            1
ture: 
    0.998779    0.0494001 -2.49115e-05    -0.246807
  -0.0493914     0.998615    0.0181276     0.107942
 0.000920363   -0.0181042     0.999836   -0.0226363
           0            0            0            1
YYYYYYYYYYYYYYYYYYYYYYYYYYYYYYYYY
robotPosShareMemory.robotPosTimeStamp=1604125477083
robotPosShareMemory.robotPosition.x=-0.246807
robotPosShareMemory.robotPosition.y=0.107942
robotPosShareMemory.robotPosition.yaw=-0.0494116
robotPosShareMemory.robotPosition.v=0
robotPosShareMemory.robotPosition.w=0.000156354
IMU DeltaTime=5
9832
IMU DeltaTime=6
ODOM  DeltaTime=10
0.0058
[odom_v odom_w imu_w]: 0, 0, 0.00010248
5
XXXXXXXXXXXXXXXXXXXXXXXXXXXXXXXXX
x: -0.246807, y: 0.107942, yaw: -0.0494083
prior: 
    0.998779    0.0493967 -2.49626e-05    -0.246807
  -0.0493882     0.998615    0.0181276     0.107942
 0.000920371   -0.0181042     0.999836   -0.0226363
           0            0            0            1
keyframe: 
1 0 0 0
0 1 0 0
0 0 1 0
0 0 0 1
relate: 
    0.998779    0.0493967 -2.49626e-05    -0.246807
  -0.0493882     0.998615    0.0181276     0.107942
 0.000920371   -0.0181042     0.999836   -0.0226363
           0            0            0            1
ODOM  DeltaTime=10
IMU DeltaTime=20
ODOM  DeltaTime=10
IMU DeltaTime=5
ODOM  DeltaTime=10
IMU DeltaTime=6
IMU DeltaTime=5
size after filter:998
ODOM  DeltaTime=10
IMU DeltaTime=6
pair: 
           1 -0.000875107  0.000512451   0.00492814
 0.000875383     0.999999 -0.000756578  -0.00255149
 -0.00051176  0.000757026     0.999999   0.00503775
           0            0            0            1
pair inverse: 
    0.999999  0.000875495 -0.000511789  -0.00492332
-0.000874996            1  0.000757027   0.00255198
 0.000512423 -0.000756578            1   -0.0050422
          -0            0           -0            1
ture: 
   0.998822   0.0485135 0.000471541   -0.241985
 -0.0485145    0.998671   0.0173711    0.105191
0.000371847  -0.0173735    0.999849  -0.0173905
          0           0           0           1
YYYYYYYYYYYYYYYYYYYYYYYYYYYYYYYYY
robotPosShareMemory.robotPosTimeStamp=1604125477139
robotPosShareMemory.robotPosition.x=-0.241985
robotPosShareMemory.robotPosition.y=0.105191
robotPosShareMemory.robotPosition.yaw=-0.0485335
robotPosShareMemory.robotPosition.v=0
robotPosShareMemory.robotPosition.w=7.94052e-05
ODOM  DeltaTime=10
9823
IMU DeltaTime=15
0.0055
[odom_v odom_w imu_w]: 0, 0, -0.000536107
5
XXXXXXXXXXXXXXXXXXXXXXXXXXXXXXXXX
x: -0.241985, y: 0.105191, yaw: -0.0485324
prior: 
   0.998822   0.0485125 0.000471507   -0.241985
 -0.0485133    0.998671   0.0173711    0.105191
0.000371833  -0.0173735    0.999849  -0.0173905
          0           0           0           1
keyframe: 
1 0 0 0
0 1 0 0
0 0 1 0
0 0 0 1
relate: 
   0.998822   0.0485125 0.000471507   -0.241985
 -0.0485133    0.998671   0.0173711    0.105191
0.000371833  -0.0173735    0.999849  -0.0173905
          0           0           0           1
ODOM  DeltaTime=10
IMU DeltaTime=5
ODOM  DeltaTime=10
IMU DeltaTime=10
ODOM  DeltaTime=10
ODOM  DeltaTime=10
size after filter:991
ODOM  DeltaTime=10
pair: 
           1  -0.00106174  0.000621898   0.00804639
   0.0010588     0.999989   0.00470356  -0.00498189
-0.000626884   -0.0047029     0.999989 -0.000905982
           0            0            0            1
pair inverse: 
    0.999999    0.0010588 -0.000626885  -0.00804167
 -0.00106173     0.999988  -0.00470289   0.00498611
 0.000621896   0.00470356     0.999989    0.0009244
          -0           -0           -0            1
ture: 
    0.998874    0.0474413   0.00107487    -0.234061
  -0.0474535      0.99863    0.0220742    0.0998701
-2.61632e-05   -0.0221004     0.999756   -0.0186393
           0            0            0            1
YYYYYYYYYYYYYYYYYYYYYYYYYYYYYYYYY
robotPosShareMemory.robotPosTimeStamp=1604125477199
robotPosShareMemory.robotPosition.x=-0.234061
robotPosShareMemory.robotPosition.y=0.0998701
robotPosShareMemory.robotPosition.yaw=-0.0474713
robotPosShareMemory.robotPosition.v=0
robotPosShareMemory.robotPosition.w=-0.000174952
ODOM  DeltaTime=10
9834
0.0061
[odom_v odom_w imu_w]: 0, 0, -0.000485085
5
XXXXXXXXXXXXXXXXXXXXXXXXXXXXXXXXX
x: -0.234061, y: 0.0998701, yaw: -0.0474755
prior: 
    0.998873    0.0474455   0.00107496    -0.234061
  -0.0474576     0.998629    0.0220742    0.0998701
-2.61639e-05   -0.0221004     0.999756   -0.0186393
           0            0            0            1
keyframe: 
1 0 0 0
0 1 0 0
0 0 1 0
0 0 0 1
relate: 
    0.998873    0.0474455   0.00107496    -0.234061
  -0.0474576     0.998629    0.0220742    0.0998701
-2.61639e-05   -0.0221004     0.999756   -0.0186393
           0            0            0            1
ODOM  DeltaTime=10
IMU DeltaTime=51
IMU DeltaTime=5
ODOM  DeltaTime=10
IMU DeltaTime=5
IMU DeltaTime=5
ODOM  DeltaTime=10
IMU DeltaTime=5
ODOM  DeltaTime=10
size after filter:998
ODOM  DeltaTime=10
pair: 
           1  -0.00031026  0.000189049    0.0036957
 0.000310388            1 -0.000205556  -0.00198445
-0.000188992  0.000205603            1   0.00169171
           0            0            0            1
pair inverse: 
           1  0.000310299 -0.000188985  -0.00369477
-0.000310349            1  0.000205615   0.00198525
 0.000189056 -0.000205544            1  -0.00169282
          -0            0           -0            1
ture: 
  0.998888  0.0471314 0.00125711    -0.2304
-0.0471476   0.998649  0.0218691  0.0978169
-0.0002247  -0.021904    0.99976 -0.0168828
         0          0          0          1
YYYYYYYYYYYYYYYYYYYYYYYYYYYYYYYYY
robotPosShareMemory.robotPosTimeStamp=1604125477255
robotPosShareMemory.robotPosition.x=-0.2304
robotPosShareMemory.robotPosition.y=0.0978169
robotPosShareMemory.robotPosition.yaw=-0.0471651
robotPosShareMemory.robotPosition.v=0
robotPosShareMemory.robotPosition.w=-0.000224432
9817
ODOM  DeltaTime=10
IMU DeltaTime=31
0.0055
[odom_v odom_w imu_w]: 0, 0, 3.54724e-05
5
XXXXXXXXXXXXXXXXXXXXXXXXXXXXXXXXX
x: -0.2304, y: 0.0978169, yaw: -0.0471694
prior: 
    0.998888    0.0471357   0.00125721      -0.2304
   -0.047152     0.998648    0.0218691    0.0978169
-0.000224697    -0.021904      0.99976   -0.0168828
           0            0            0            1
keyframe: 
1 0 0 0
0 1 0 0
0 0 1 0
0 0 0 1
relate: 
    0.998888    0.0471357   0.00125721      -0.2304
   -0.047152     0.998648    0.0218691    0.0978169
-0.000224697    -0.021904      0.99976   -0.0168828
           0            0            0            1
IMU DeltaTime=5
ODOM  DeltaTime=10
IMU DeltaTime=5
IMU DeltaTime=5
ODOM  DeltaTime=10
IMU DeltaTime=5
ODOM  DeltaTime=10
ODOM  DeltaTime=10
size after filter:990
ODOM  DeltaTime=10
pair: 
    0.999998   0.00198217 -0.000860983   0.00227365
 -0.00198523     0.999992  -0.00341297   0.00692804
 0.000854238   0.00341465     0.999994  0.000898539
           0            0            0            1
pair inverse: 
    0.999997   -0.0019851  0.000854211  -0.00226066
   0.0019823     0.999993   0.00341467  -0.00693556
-0.000861011  -0.00341295     0.999994 -0.000872931
          -0            0           -0            1
ture: 
   0.998792    0.049134  0.00043978   -0.227917
 -0.0491338    0.998621   0.0184542    0.105259
0.000467585  -0.0184536    0.999829   -0.015847
          0           0           0           1
YYYYYYYYYYYYYYYYYYYYYYYYYYYYYYYYY
robotPosShareMemory.robotPosTimeStamp=1604125477318
robotPosShareMemory.robotPosition.x=-0.227917
robotPosShareMemory.robotPosition.y=0.105259
robotPosShareMemory.robotPosition.yaw=-0.0491536
robotPosShareMemory.robotPosition.v=0
robotPosShareMemory.robotPosition.w=-4.71525e-05
ODOM  DeltaTime=10
9826
0.0063
[odom_v odom_w imu_w]: 0, 0, 0.000315444
5
XXXXXXXXXXXXXXXXXXXXXXXXXXXXXXXXX
x: -0.227917, y: 0.105259, yaw: -0.0491544
prior: 
   0.998792   0.0491348 0.000439781   -0.227917
 -0.0491346    0.998622   0.0184542    0.105259
0.000467571  -0.0184536     0.99983   -0.015847
          0           0           0           1
keyframe: 
1 0 0 0
0 1 0 0
0 0 1 0
0 0 0 1
relate: 
   0.998792   0.0491348 0.000439781   -0.227917
 -0.0491346    0.998622   0.0184542    0.105259
0.000467571  -0.0184536     0.99983   -0.015847
          0           0           0           1
ODOM  DeltaTime=10
ODOM  DeltaTime=10
ODOM  DeltaTime=10
ODOM  DeltaTime=10
size after filter:997
ODOM  DeltaTime=10
pair: 
   0.999997 -0.00226816  0.00127834 -0.00165086
 0.00226348    0.999991  0.00376248 -0.00700772
-0.00128689 -0.00375957    0.999992  0.00196379
          0           0           0           1
pair inverse: 
   0.999997  0.00226333 -0.00128686  0.00166924
 -0.0022683     0.99999 -0.00375957  0.00701129
 0.00127837  0.00376248    0.999992  -0.0019353
         -0          -0          -0           1
ture: 
    0.998901     0.046846   0.00167604    -0.229827
  -0.0468716     0.998654    0.0222169    0.0976749
-0.000633043    -0.022271     0.999752   -0.0139855
           0            0            0            1
YYYYYYYYYYYYYYYYYYYYYYYYYYYYYYYYY
robotPosShareMemory.robotPosTimeStamp=1604125477377
robotPosShareMemory.robotPosition.x=-0.229827
robotPosShareMemory.robotPosition.y=0.0976749
robotPosShareMemory.robotPosition.yaw=-0.0468889
robotPosShareMemory.robotPosition.v=0
robotPosShareMemory.robotPosition.w=0.000102826
IMU DeltaTime=92
ODOM  DeltaTime=10
IMU DeltaTime=5
0.0059
[odom_v odom_w imu_w]: 0, 0, -0.000208812
5
IMU DeltaTime=5
XXXXXXXXXXXXXXXXXXXXXXXXXXXXXXXXX
x: -0.229827, y: 0.0976749, yaw: -0.0468869
prior: 
    0.998901     0.046844   0.00167601    -0.229827
  -0.0468697     0.998654    0.0222169    0.0976749
-0.000633029    -0.022271     0.999752   -0.0139855
           0            0            0            1
keyframe: 
1 0 0 0
0 1 0 0
0 0 1 0
0 0 0 1
relate: 
    0.998901     0.046844   0.00167601    -0.229827
  -0.0468697     0.998654    0.0222169    0.0976749
-0.000633029    -0.022271     0.999752   -0.0139855
           0            0            0            1
ODOM  DeltaTime=10
IMU DeltaTime=6
IMU DeltaTime=5
ODOM  DeltaTime=10
IMU DeltaTime=6
IMU DeltaTime=5
ODOM  DeltaTime=10
IMU DeltaTime=5
IMU DeltaTime=5
ODOM  DeltaTime=10
size after filter:997
IMU DeltaTime=5
IMU DeltaTime=5
ODOM  DeltaTime=10
pair: 
           1 -0.000191391   4.3797e-05  0.000685719
 0.000191345            1  7.10659e-05 -0.000686451
-4.37899e-05 -7.10653e-05            1  0.000434732
           0            0            0            1
pair inverse: 
           1  0.000191388 -4.38106e-05 -0.000685568
-0.000191348            1 -7.10575e-05  0.000686613
 4.37763e-05  7.10737e-05            1 -0.000434713
          -0           -0           -0            1
ture: 
    0.99891   0.0466519  0.00171555    -0.22916
 -0.0466786    0.998661   0.0222883   0.0969435
-0.00067344  -0.0223441     0.99975  -0.0135476
          0           0           0           1
YYYYYYYYYYYYYYYYYYYYYYYYYYYYYYYYY
robotPosShareMemory.robotPosTimeStamp=1604125477432
robotPosShareMemory.robotPosition.x=-0.22916
robotPosShareMemory.robotPosition.y=0.0969435
robotPosShareMemory.robotPosition.yaw=-0.0466956
robotPosShareMemory.robotPosition.v=0
robotPosShareMemory.robotPosition.w=-4.88784e-05
IMU DeltaTime=5
9897
IMU DeltaTime=5
ODOM  DeltaTime=10
0.0055
[odom_v odom_w imu_w]: 0, 0, -0.000229959
5
XXXXXXXXXXXXXXXXXXXXXXXXXXXXXXXXX
x: -0.22916, y: 0.0969435, yaw: -0.0466967
prior: 
    0.99891    0.046653  0.00171556    -0.22916
 -0.0466797    0.998661   0.0222883   0.0969435
-0.00067345  -0.0223441     0.99975  -0.0135476
          0           0           0           1
keyframe: 
1 0 0 0
0 1 0 0
0 0 1 0
0 0 0 1
relate: 
    0.99891    0.046653  0.00171556    -0.22916
 -0.0466797    0.998661   0.0222883   0.0969435
-0.00067345  -0.0223441     0.99975  -0.0135476
          0           0           0           1
IMU DeltaTime=6
IMU DeltaTime=5
ODOM  DeltaTime=10
IMU DeltaTime=5
ODOM  DeltaTime=10
IMU DeltaTime=15
ODOM  DeltaTime=10
IMU DeltaTime=6
size after filter:1007
IMU DeltaTime=5
ODOM  DeltaTime=10
IMU DeltaTime=5
pair: 
           1  0.000506947 -0.000458497 -2.98085e-05
-0.000506149     0.999998   0.00179314   0.00301752
 0.000459417  -0.00179292     0.999998  -0.00465147
           0            0            0            1
pair inverse: 
           1 -0.000506124  0.000459405  3.34726e-05
 0.000506972     0.999998  -0.00179291  -0.00302584
-0.000458509   0.00179315     0.999998   0.00464603
          -0            0           -0            1
ture: 
   0.998886   0.0471696  0.00126848   -0.229135
 -0.0471864    0.998596   0.0240801    0.100053
-0.00013084  -0.0241131    0.999709  -0.0184781
          0           0           0           1
YYYYYYYYYYYYYYYYYYYYYYYYYYYYYYYYY
robotPosShareMemory.robotPosTimeStamp=1604125477487
robotPosShareMemory.robotPosition.x=-0.229135
robotPosShareMemory.robotPosition.y=0.100053
robotPosShareMemory.robotPosition.yaw=-0.047204
robotPosShareMemory.robotPosition.v=0
robotPosShareMemory.robotPosition.w=-9.72678e-05
ODOM  DeltaTime=10
9837
0.0056
[odom_v odom_w imu_w]: 0, 0, -0.000432563
5
XXXXXXXXXXXXXXXXXXXXXXXXXXXXXXXXX
x: -0.229135, y: 0.100053, yaw: -0.0472062
prior: 
    0.998886    0.0471718   0.00126853    -0.229135
  -0.0471887     0.998596    0.0240801     0.100053
-0.000130846   -0.0241131     0.999709   -0.0184781
           0            0            0            1
keyframe: 
1 0 0 0
0 1 0 0
0 0 1 0
0 0 0 1
relate: 
    0.998886    0.0471718   0.00126853    -0.229135
  -0.0471887     0.998596    0.0240801     0.100053
-0.000130846   -0.0241131     0.999709   -0.0184781
           0            0            0            1
ODOM  DeltaTime=10
ODOM  DeltaTime=10
ODOM  DeltaTime=10
ODOM  DeltaTime=10
size after filter:982
ODOM  DeltaTime=10
pair: 
   0.999997  0.00218466 -0.00065356  0.00276563
-0.00218786    0.999986 -0.00482192  0.00672552
0.000643018  0.00482334    0.999988  0.00538858
          0           0           0           1
pair inverse: 
    0.999997  -0.00218779  0.000643016  -0.00275437
  0.00218473     0.999986   0.00482334  -0.00675746
-0.000653562  -0.00482192     0.999988  -0.00535428
          -0            0           -0            1
ture: 
    0.99878    0.049369 0.000667762   -0.226138
 -0.0493728    0.998595   0.0192564    0.107367
 0.00028385  -0.0192659    0.999815  -0.0127541
          0           0           0           1
YYYYYYYYYYYYYYYYYYYYYYYYYYYYYYYYY
robotPosShareMemory.robotPosTimeStamp=1604125477546
robotPosShareMemory.robotPosition.x=-0.226138
robotPosShareMemory.robotPosition.y=0.107367
robotPosShareMemory.robotPosition.yaw=-0.0493929
robotPosShareMemory.robotPosition.v=0
robotPosShareMemory.robotPosition.w=-0.000184392
ODOM  DeltaTime=10
9847
0.0059
[odom_v odom_w imu_w]: 0, 0, -0.000432563
5
IMU DeltaTime=71
XXXXXXXXXXXXXXXXXXXXXXXXXXXXXXXXX
x: -0.226138, y: 0.107367, yaw: -0.049397
prior: 
    0.99878   0.0493733 0.000667842   -0.226138
  -0.049377    0.998595   0.0192564    0.107367
0.000283849  -0.0192659    0.999814  -0.0127541
          0           0           0           1
keyframe: 
1 0 0 0
0 1 0 0
0 0 1 0
0 0 0 1
relate: 
    0.99878   0.0493733 0.000667842   -0.226138
  -0.049377    0.998595   0.0192564    0.107367
0.000283849  -0.0192659    0.999814  -0.0127541
          0           0           0           1
ODOM  DeltaTime=10
IMU DeltaTime=5
IMU DeltaTime=5
ODOM  DeltaTime=10
IMU DeltaTime=5
IMU DeltaTime=6
ODOM  DeltaTime=10
IMU DeltaTime=10
ODOM  DeltaTime=10
IMU DeltaTime=5
size after filter:995
IMU DeltaTime=10
ODOM  DeltaTime=13
pair: 
    0.999998  -0.00224102  0.000593089  7.16376e-05
  0.00224012     0.999997   0.00114694   -0.0079543
-0.000595623  -0.00114562     0.999999  -0.00209624
           0            0            0            1
pair inverse: 
    0.999997   0.00224033 -0.000595658 -5.50657e-05
  -0.0022408     0.999997  -0.00114561   0.00795204
 0.000593055   0.00114695     0.999999   0.00210532
          -0           -0           -0            1
ture: 
   0.998889   0.0471239  0.00121767   -0.226314
 -0.0471391     0.99868   0.0204046   0.0988913
-0.00025448  -0.0204393    0.999791  -0.0148386
          0           0           0           1
YYYYYYYYYYYYYYYYYYYYYYYYYYYYYYYYY
robotPosShareMemory.robotPosTimeStamp=1604125477607
robotPosShareMemory.robotPosition.x=-0.226314
robotPosShareMemory.robotPosition.y=0.0988913
robotPosShareMemory.robotPosition.yaw=-0.0471565
robotPosShareMemory.robotPosition.v=0
robotPosShareMemory.robotPosition.w=-0.000207737
ODOM  DeltaTime=7
9850
IMU DeltaTime=10
0.0061
[odom_v odom_w imu_w]: 0, 0, 0.000108782
5
XXXXXXXXXXXXXXXXXXXXXXXXXXXXXXXXX
x: -0.226314, y: 0.0988913, yaw: -0.0471609
prior: 
    0.998888    0.0471283   0.00121774    -0.226314
  -0.0471434      0.99868    0.0204046    0.0988913
-0.000254497   -0.0204393     0.999791   -0.0148386
           0            0            0            1
keyframe: 
1 0 0 0
0 1 0 0
0 0 1 0
0 0 0 1
relate: 
    0.998888    0.0471283   0.00121774    -0.226314
  -0.0471434      0.99868    0.0204046    0.0988913
-0.000254497   -0.0204393     0.999791   -0.0148386
           0            0            0            1
IMU DeltaTime=6
ODOM  DeltaTime=10
IMU DeltaTime=5
ODOM  DeltaTime=10
IMU DeltaTime=15
ODOM  DeltaTime=10
IMU DeltaTime=5
ODOM  DeltaTime=10
size after filter:989
ODOM  DeltaTime=10
pair: 
           1  0.000673468 -0.000634797   0.00126699
-0.000674969     0.999997  -0.00224881   0.00263128
 0.000633295   0.00224924     0.999997  0.000516981
           0            0            0            1
pair inverse: 
           1 -0.000674894  0.000633281  -0.00126554
 0.000673543     0.999997   0.00224924  -0.00263329
-0.000634812  -0.00224881     0.999997 -0.000510258
          -0            0           -0            1
ture: 
   0.998856   0.0478139 0.000596816   -0.224971
 -0.0478169    0.998691   0.0181554    0.101708
0.000272059  -0.0181631    0.999835  -0.0142425
          0           0           0           1
YYYYYYYYYYYYYYYYYYYYYYYYYYYYYYYYY
robotPosShareMemory.robotPosTimeStamp=1604125477662
robotPosShareMemory.robotPosition.x=-0.224971
robotPosShareMemory.robotPosition.y=0.101708
robotPosShareMemory.robotPosition.yaw=-0.0478351
robotPosShareMemory.robotPosition.v=0
robotPosShareMemory.robotPosition.w=-1.58458e-05
IMU DeltaTime=20
9833
IMU DeltaTime=6
ODOM  DeltaTime=10
0.0055
[odom_v odom_w imu_w]: 0, 0, -0.000332154
5
XXXXXXXXXXXXXXXXXXXXXXXXXXXXXXXXX
x: -0.224971, y: 0.101708, yaw: -0.0478356
prior: 
   0.998856   0.0478145 0.000596819   -0.224971
 -0.0478174    0.998691   0.0181554    0.101708
0.000272052  -0.0181631    0.999835  -0.0142425
          0           0           0           1
keyframe: 
1 0 0 0
0 1 0 0
0 0 1 0
0 0 0 1
relate: 
   0.998856   0.0478145 0.000596819   -0.224971
 -0.0478174    0.998691   0.0181554    0.101708
0.000272052  -0.0181631    0.999835  -0.0142425
          0           0           0           1
ODOM  DeltaTime=10
ODOM  DeltaTime=10
ODOM  DeltaTime=10
size after filter:986
ODOM  DeltaTime=10
pair: 
    0.999998   0.00190197 -0.000513223  -0.00771879
  -0.0019017     0.999998  0.000423627   0.00612493
 0.000514055 -0.000422665     0.999999  -0.00303678
           0            0            0            1
pair inverse: 
   0.999998 -0.00190176 0.000514028  0.00773199
 0.00190192    0.999998 -0.00042265 -0.00611152
-0.00051325 0.000423642           1  0.00303023
         -0           0          -0           1
ture: 
   0.998763   0.0497232 0.000118211   -0.232488
 -0.0497167     0.99859   0.0185778    0.108255
0.000805729  -0.0185607    0.999827  -0.0174379
          0           0           0           1
YYYYYYYYYYYYYYYYYYYYYYYYYYYYYYYYY
robotPosShareMemory.robotPosTimeStamp=1604125477721
robotPosShareMemory.robotPosition.x=-0.232488
robotPosShareMemory.robotPosition.y=0.108255
robotPosShareMemory.robotPosition.yaw=-0.0497373
robotPosShareMemory.robotPosition.v=0
robotPosShareMemory.robotPosition.w=-0.000125823
ODOM  DeltaTime=10
IMU DeltaTime=55
IMU DeltaTime=6
0.0058
[odom_v odom_w imu_w]: 0, 0, -2.73433e-06
5
ODOM  DeltaTime=10
XXXXXXXXXXXXXXXXXXXXXXXXXXXXXXXXX
x: -0.232488, y: 0.108255, yaw: -0.0497398
prior: 
   0.998763   0.0497257 0.000118245   -0.232488
 -0.0497193     0.99859   0.0185778    0.108255
0.000805715  -0.0185607    0.999827  -0.0174379
          0           0           0           1
keyframe: 
1 0 0 0
0 1 0 0
0 0 1 0
0 0 0 1
relate: 
   0.998763   0.0497257 0.000118245   -0.232488
 -0.0497193     0.99859   0.0185778    0.108255
0.000805715  -0.0185607    0.999827  -0.0174379
          0           0           0           1
IMU DeltaTime=5
IMU DeltaTime=5
ODOM  DeltaTime=10
IMU DeltaTime=5
IMU DeltaTime=5
ODOM  DeltaTime=10
ODOM  DeltaTime=10
size after filter:986
ODOM  DeltaTime=10
pair: 
           1  0.000107809 -0.000107501  -0.00258581
-0.000107839            1  2.53859e-05  0.000520302
 0.000107534  -2.5387e-05            1  -0.00231953
           0            0            0            1
pair inverse: 
           1 -0.000107806  0.000107504   0.00258611
 0.000107841            1 -2.53744e-05 -0.000520082
-0.000107531  2.53986e-05            1   0.00231924
          -0            0           -0            1
ture: 
   0.998757   0.0498354 1.27652e-05   -0.235061
  -0.049827    0.998584   0.0186031      0.1088
0.000914377  -0.0185807    0.999826  -0.0197852
          0           0           0           1
YYYYYYYYYYYYYYYYYYYYYYYYYYYYYYYYY
robotPosShareMemory.robotPosTimeStamp=1604125477776
robotPosShareMemory.robotPosition.x=-0.235061
robotPosShareMemory.robotPosition.y=0.1088
robotPosShareMemory.robotPosition.yaw=-0.0498476
robotPosShareMemory.robotPosition.v=0
robotPosShareMemory.robotPosition.w=-3.47149e-05
9835
ODOM  DeltaTime=10
0.0055
[odom_v odom_w imu_w]: 0, 0, -0.000304481
5
XXXXXXXXXXXXXXXXXXXXXXXXXXXXXXXXX
x: -0.235061, y: 0.1088, yaw: -0.0498485
prior: 
   0.998757   0.0498363 1.27666e-05   -0.235061
 -0.0498279    0.998585   0.0186031      0.1088
0.000914362  -0.0185806    0.999827  -0.0197852
          0           0           0           1
keyframe: 
1 0 0 0
0 1 0 0
0 0 1 0
0 0 0 1
relate: 
   0.998757   0.0498363 1.27666e-05   -0.235061
 -0.0498279    0.998585   0.0186031      0.1088
0.000914362  -0.0185806    0.999827  -0.0197852
          0           0           0           1
ODOM  DeltaTime=10
ODOM  DeltaTime=10
IMU DeltaTime=56
ODOM  DeltaTime=10
IMU DeltaTime=5
IMU DeltaTime=5
size after filter:988
ODOM  DeltaTime=10
IMU DeltaTime=5
IMU DeltaTime=6
ODOM  DeltaTime=10
IMU DeltaTime=5
pair: 
           1  3.34204e-05  0.000687238   -0.0120941
-3.53591e-05     0.999996   0.00283896   0.00218933
-0.000687155  -0.00283898     0.999996  -0.00124933
           0            0            0            1
pair inverse: 
           1 -3.53713e-05  -0.00068714    0.0120933
 3.34082e-05     0.999996  -0.00283898  -0.00219246
 0.000687252   0.00283896     0.999996   0.00125142
          -0            0           -0            1
ture: 
   0.998756   0.0498569 0.000700507   -0.247165
 -0.0498604    0.998526   0.0214415    0.110941
0.000369518  -0.0214498     0.99977  -0.0211818
          0           0           0           1
YYYYYYYYYYYYYYYYYYYYYYYYYYYYYYYYY
robotPosShareMemory.robotPosTimeStamp=1604125477834
robotPosShareMemory.robotPosition.x=-0.247165
robotPosShareMemory.robotPosition.y=0.110941
robotPosShareMemory.robotPosition.yaw=-0.0498811
robotPosShareMemory.robotPosition.v=0
robotPosShareMemory.robotPosition.w=-0.000120749
IMU DeltaTime=6
9848
ODOM  DeltaTime=10
IMU DeltaTime=5
0.0059
[odom_v odom_w imu_w]: 0, 0, -0.000211352
5
XXXXXXXXXXXXXXXXXXXXXXXXXXXXXXXXX
x: -0.247165, y: 0.110941, yaw: -0.0498838
prior: 
   0.998756   0.0498596 0.000700572   -0.247165
 -0.0498631    0.998526   0.0214415    0.110941
0.000369525  -0.0214498     0.99977  -0.0211818
          0           0           0           1
keyframe: 
1 0 0 0
0 1 0 0
0 0 1 0
0 0 0 1
relate: 
   0.998756   0.0498596 0.000700572   -0.247165
 -0.0498631    0.998526   0.0214415    0.110941
0.000369525  -0.0214498     0.99977  -0.0211818
          0           0           0           1
ODOM  DeltaTime=10
ODOM  DeltaTime=10
ODOM  DeltaTime=10
IMU DeltaTime=31
size after filter:997
IMU DeltaTime=5
ODOM  DeltaTime=10
IMU DeltaTime=5
IMU DeltaTime=5
ODOM  DeltaTime=10
pair: 
           1  0.000514341  0.000179029   0.00954672
-0.000513981     0.999998  -0.00209888   0.00327953
-0.000180095   0.00209878     0.999998   0.00620545
           0            0            0            1
pair inverse: 
           1 -0.000513964 -0.000180108  -0.00954391
 0.000514358     0.999998   0.00209878  -0.00329746
 0.000179016  -0.00209887     0.999998  -0.00620026
          -0            0           -0            1
ture: 
    0.99873   0.0503693 0.000890589   -0.237565
 -0.0503771    0.998543   0.0193427    0.114392
8.50017e-05   -0.019363    0.999813   -0.014699
          0           0           0           1
YYYYYYYYYYYYYYYYYYYYYYYYYYYYYYYYY
robotPosShareMemory.robotPosTimeStamp=1604125477893
robotPosShareMemory.robotPosition.x=-0.237565
robotPosShareMemory.robotPosition.y=0.114392
robotPosShareMemory.robotPosition.yaw=-0.0503984
robotPosShareMemory.robotPosition.v=0
robotPosShareMemory.robotPosition.w=-0.000109715
IMU DeltaTime=5
9814
IMU DeltaTime=5
ODOM  DeltaTime=10
0.0059
[odom_v odom_w imu_w]: 0, 0, -8.47499e-05
5
XXXXXXXXXXXXXXXXXXXXXXXXXXXXXXXXX
x: -0.237565, y: 0.114392, yaw: -0.0504008
prior: 
    0.99873   0.0503717 0.000890628   -0.237565
 -0.0503795    0.998543   0.0193427    0.114392
8.49949e-05   -0.019363    0.999813   -0.014699
          0           0           0           1
keyframe: 
1 0 0 0
0 1 0 0
0 0 1 0
0 0 0 1
relate: 
    0.99873   0.0503717 0.000890628   -0.237565
 -0.0503795    0.998543   0.0193427    0.114392
8.49949e-05   -0.019363    0.999813   -0.014699
          0           0           0           1
IMU DeltaTime=5
ODOM  DeltaTime=10
ODOM  DeltaTime=10
ODOM  DeltaTime=10
size after filter:984
ODOM  DeltaTime=10
pair: 
           1  -0.00083311 -0.000144208   0.00515208
 0.000833104            1 -0.000181502  -0.00456304
 0.000144365  0.000181387            1   0.00226806
           0            0            0            1
pair inverse: 
    0.999999  0.000833083  0.000144359   -0.0051486
-0.000833129     0.999999  0.000181382   0.00456692
-0.000144213 -0.000181507            1  -0.00226814
          -0            0           -0            1
ture: 
   0.998772   0.0495426 0.000730332   -0.232506
 -0.0495474    0.998588    0.019162    0.109633
0.000220038  -0.0191746    0.999816  -0.0124444
          0           0           0           1
YYYYYYYYYYYYYYYYYYYYYYYYYYYYYYYYY
robotPosShareMemory.robotPosTimeStamp=1604125477949
robotPosShareMemory.robotPosition.x=-0.232506
robotPosShareMemory.robotPosition.y=0.109633
robotPosShareMemory.robotPosition.yaw=-0.0495677
robotPosShareMemory.robotPosition.v=0
robotPosShareMemory.robotPosition.w=-6.04186e-05
ODOM  DeltaTime=10
9836
0.0055
[odom_v odom_w imu_w]: 0, 0, -8.16183e-05
5
XXXXXXXXXXXXXXXXXXXXXXXXXXXXXXXXX
x: -0.232506, y: 0.109633, yaw: -0.049569
prior: 
   0.998772   0.0495438 0.000730353   -0.232506
 -0.0495487    0.998588    0.019162    0.109633
0.000220035  -0.0191746    0.999816  -0.0124444
          0           0           0           1
keyframe: 
1 0 0 0
0 1 0 0
0 0 1 0
0 0 0 1
relate: 
   0.998772   0.0495438 0.000730353   -0.232506
 -0.0495487    0.998588    0.019162    0.109633
0.000220035  -0.0191746    0.999816  -0.0124444
          0           0           0           1
ODOM  DeltaTime=10
ODOM  DeltaTime=10
ODOM  DeltaTime=10
ODOM  DeltaTime=10
size after filter:983
ODOM  DeltaTime=10
ODOM  DeltaTime=10
IMU DeltaTime=107
pair: 
           1 -0.000886416 -2.62077e-05    0.0135632
 0.000886098     0.999934   -0.0114784   0.00313753
 3.63865e-05    0.0114784     0.999934   0.00445033
           0            0            0            1
pair inverse: 
           1  0.000886057  3.63806e-05   -0.0135662
-0.000886457     0.999934    0.0114784  -0.00317638
-2.62131e-05   -0.0114785     0.999934  -0.00441367
          -0            0           -0            1
ture: 
    0.998815    0.0486591  0.000687165    -0.219039
  -0.0486629     0.998786   0.00768503       0.1127
-0.000312378  -0.00770936      0.99997  -0.00674334
           0            0            0            1
YYYYYYYYYYYYYYYYYYYYYYYYYYYYYYYYY
robotPosShareMemory.robotPosTimeStamp=1604125478014
robotPosShareMemory.robotPosition.x=-0.219039
robotPosShareMemory.robotPosition.y=0.1127
robotPosShareMemory.robotPosition.yaw=-0.0486822
robotPosShareMemory.robotPosition.v=0
robotPosShareMemory.robotPosition.w=-4.60635e-05
IMU DeltaTime=5
9856
ODOM  DeltaTime=10
IMU DeltaTime=5
0.0065
[odom_v odom_w imu_w]: 0, 0, 0.000167799
5
XXXXXXXXXXXXXXXXXXXXXXXXXXXXXXXXX
x: -0.219039, y: 0.1127, yaw: -0.0486831
prior: 
    0.998815      0.04866  0.000687169    -0.219039
  -0.0486638     0.998786   0.00768502       0.1127
-0.000312381  -0.00770936      0.99997  -0.00674334
           0            0            0            1
keyframe: 
1 0 0 0
0 1 0 0
0 0 1 0
0 0 0 1
relate: 
    0.998815      0.04866  0.000687169    -0.219039
  -0.0486638     0.998786   0.00768502       0.1127
-0.000312381  -0.00770936      0.99997  -0.00674334
           0            0            0            1
IMU DeltaTime=5
ODOM  DeltaTime=10
IMU DeltaTime=6
IMU DeltaTime=5
ODOM  DeltaTime=10
IMU DeltaTime=5
IMU DeltaTime=5
ODOM  DeltaTime=10
IMU DeltaTime=5
IMU DeltaTime=5
size after filter:994
ODOM  DeltaTime=10
IMU DeltaTime=5
IMU DeltaTime=5
ODOM  DeltaTime=10
IMU DeltaTime=6
ODOM  DeltaTime=10
pair: 
           1 -0.000281965 -0.000144573   -0.0291294
 0.000284443     0.999852     0.017242  -0.00630385
 0.000139662    -0.017242     0.999852   -0.0177483
           0            0            0            1
pair inverse: 
           1  0.000284416   0.00013969    0.0291336
-0.000281993     0.999851    -0.017242   0.00598868
-0.000144545    0.0172419     0.999851    0.0178501
          -0            0           -0            1
ture: 
   0.998829   0.0483795 0.000540434     -0.2482
 -0.0483779    0.998518   0.0249255    0.106201
0.000666224  -0.0249225     0.99969  -0.0264644
          0           0           0           1
YYYYYYYYYYYYYYYYYYYYYYYYYYYYYYYYY
robotPosShareMemory.robotPosTimeStamp=1604125478084
robotPosShareMemory.robotPosition.x=-0.2482
robotPosShareMemory.robotPosition.y=0.106201IMU DeltaTime=
robotPosShareMemory.robotPosition.yaw=-0.0483968
robotPosShareMemory.robotPosition.v=0
robotPosShareMemory.robotPosition.w=4.90759e-05
10
9825
ODOM  DeltaTime=10
IMU DeltaTime=10
0.007
[odom_v odom_w imu_w]: 0, 0, 9.19621e-05
5
XXXXXXXXXXXXXXXXXXXXXXXXXXXXXXXXX
x: -0.2482, y: 0.106201, yaw: -0.0483955
prior: 
   0.998829   0.0483782 0.000540415     -0.2482
 -0.0483766    0.998518   0.0249255    0.106201
0.000666237  -0.0249225    0.999689  -0.0264644
          0           0           0           1
keyframe: 
1 0 0 0
0 1 0 0
0 0 1 0
0 0 0 1
relate: 
   0.998829   0.0483782 0.000540415     -0.2482
 -0.0483766    0.998518   0.0249255    0.106201
0.000666237  -0.0249225    0.999689  -0.0264644
          0           0           0           1
IMU DeltaTime=5
ODOM  DeltaTime=10
IMU DeltaTime=5
IMU DeltaTime=5
ODOM  DeltaTime=10
IMU DeltaTime=6
IMU DeltaTime=5
ODOM  DeltaTime=10
IMU DeltaTime=5
size after filter:988
IMU DeltaTime=5
ODOM  DeltaTime=10
ODOM  DeltaTime=10
IMU DeltaTime=15
ODOM  DeltaTime=10
pair: 
           1  2.26747e-05  -0.00091782    0.0244955
-3.95674e-05     0.999831   -0.0183872   0.00096469
 0.000917226    0.0183872     0.999831    0.0166069
           0            0            0            1
pair inverse: 
    0.999999  -3.9547e-05  0.000917246   -0.0245107
 2.26955e-05     0.999831    0.0183872  -0.00127044
-0.000917798   -0.0183872      0.99983   -0.0165639
          -0            0           -0            1
ture: 
    0.998827    0.0484237 -0.000376554    -0.223677
  -0.0484202     0.998806    0.0065398     0.107644
 0.000692764   -0.0065139     0.999979  -0.00812793
           0            0            0            1
YYYYYYYYYYYYYYYYYYYYYYYYYYYYYYYYY
robotPosShareMemory.robotPosTimeStamp=1604125478153
robotPosShareMemory.robotPosition.x=-0.223677
robotPosShareMemory.robotPosition.y=0.107644
robotPosShareMemory.robotPosition.yaw=-0.0484392
robotPosShareMemory.robotPosition.v=0
robotPosShareMemory.robotPosition.w=4.68103e-05
9872
ODOM  DeltaTime=10
0.007
[odom_v odom_w imu_w]: 0, 0, 0.000316905
5
XXXXXXXXXXXXXXXXXXXXXXXXXXXXXXXXX
x: -0.223677, y: 0.107644, yaw: -0.0484377
prior: 
    0.998827    0.0484223 -0.000376552    -0.223677
  -0.0484188     0.998806    0.0065398     0.107644
 0.000692775   -0.0065139     0.999979  -0.00812793
           0            0            0            1
keyframe: 
1 0 0 0
0 1 0 0
0 0 1 0
0 0 0 1
relate: 
    0.998827    0.0484223 -0.000376552    -0.223677
  -0.0484188     0.998806    0.0065398     0.107644
 0.000692775   -0.0065139     0.999979  -0.00812793
           0            0            0            1
IMU DeltaTime=26
ODOM  DeltaTime=10
IMU DeltaTime=5
IMU DeltaTime=5
ODOM  DeltaTime=10
IMU DeltaTime=5
ODOM  DeltaTime=10
IMU DeltaTime=10
size after filter:976
ODOM  DeltaTime=10
ODOM  DeltaTime=10
pair: 
    0.999999  0.000675567 -6.58933e-05   -0.0211952
-0.000675309     0.999994   0.00345462   0.00507914
 6.82105e-05  -0.00345458     0.999994  -0.00770584
           0            0            0            1
pair inverse: 
           1 -0.000675336  6.82268e-05    0.0211992
 0.000675541     0.999994  -0.00345458  -0.00509141
-6.58772e-05   0.00345463     0.999994   0.00768685
          -0            0           -0            1
ture: 
    0.998793    0.0490974 -0.000438026    -0.244799
  -0.0490906     0.998744   0.00999456     0.112846
 0.000928168  -0.00996101      0.99995   -0.0162208
           0            0            0            1
YYYYYYYYYYYYYYYYYYYYYYYYYYYYYYYYY
robotPosShareMemory.robotPosTimeStamp=1604125478217
robotPosShareMemory.robotPosition.x=-0.244799
robotPosShareMemory.robotPosition.y=0.112846
robotPosShareMemory.robotPosition.yaw=-0.0491104
robotPosShareMemory.robotPosition.v=0
robotPosShareMemory.robotPosition.w=0.000128538
ODOM  DeltaTime=10
9900
IMU DeltaTime=31
0.0064
[odom_v odom_w imu_w]: 0, 0, -0.000615842
5
XXXXXXXXXXXXXXXXXXXXXXXXXXXXXXXXX
x: -0.244799, y: 0.112846, yaw: -0.049108
prior: 
    0.998794    0.0490951 -0.000438042    -0.244799
  -0.0490882     0.998744   0.00999456     0.112846
 0.000928176  -0.00996101      0.99995   -0.0162208
           0            0            0            1
keyframe: 
1 0 0 0
0 1 0 0
0 0 1 0
0 0 0 1
relate: 
    0.998794    0.0490951 -0.000438042    -0.244799
  -0.0490882     0.998744   0.00999456     0.112846
 0.000928176  -0.00996101      0.99995   -0.0162208
           0            0            0            1
ODOM  DeltaTime=10
IMU DeltaTime=5
IMU DeltaTime=5
ODOM  DeltaTime=10
IMU DeltaTime=5
ODOM  DeltaTime=10
IMU DeltaTime=10
IMU DeltaTime=6
ODOM  DeltaTime=10
size after filter:1001
IMU DeltaTime=10
ODOM  DeltaTime=10
pair: 
   0.999997 -0.00165321  0.00171929  0.00717308
  0.0016499    0.999997  0.00193254  -0.0102443
-0.00172249 -0.00192969    0.999997   0.0112571
          0           0           0           1
pair inverse: 
   0.999997  0.00164989 -0.00172248 -0.00713676
-0.00165323    0.999997 -0.00192969   0.0102778
  0.0017193  0.00193253    0.999996  -0.0112496
         -0          -0          -0           1
ture: 
    0.998874    0.0474267   0.00126464     -0.23784
  -0.0474384     0.998803    0.0119262     0.102166
-0.000697518   -0.0119728     0.999929  -0.00475983
           0            0            0            1
YYYYYYYYYYYYYYYYYYYYYYYYYYYYYYYYY
robotPosShareMemory.robotPosTimeStamp=1604125478277
robotPosShareMemory.robotPosition.x=-0.23784
robotPosShareMemory.robotPosition.y=0.102166
robotPosShareMemory.robotPosition.yaw=-0.0474562
robotPosShareMemory.robotPosition.v=0
robotPosShareMemory.robotPosition.w=-0.000190972
ODOM  DeltaTime=10
0.0059
[odom_v odom_w imu_w]: 0, 0, -0.000145639
5
XXXXXXXXXXXXXXXXXXXXXXXXXXXXXXXXX
x: -0.23784, y: 0.102166, yaw: -0.0474603
prior: 
    0.998874    0.0474307    0.0012647     -0.23784
  -0.0474425     0.998803    0.0119262     0.102166
-0.000697512   -0.0119728     0.999928  -0.00475983
           0            0            0            1
keyframe: 
1 0 0 0
0 1 0 0
0 0 1 0
0 0 0 1
relate: 
    0.998874    0.0474307    0.0012647     -0.23784
  -0.0474425     0.998803    0.0119262     0.102166
-0.000697512   -0.0119728     0.999928  -0.00475983
           0            0            0            1
ODOM  DeltaTime=10
IMU DeltaTime=30
ODOM  DeltaTime=10
IMU DeltaTime=5
IMU DeltaTime=6
ODOM  DeltaTime=10
ODOM  DeltaTime=10
size after filter:1001
ODOM  DeltaTime=10
pair: 
           1 -0.000217571  7.04256e-05   0.00358777
